15:35:47.408 -> $GPGGA,000001.00,,,,,0,00,,,,,,,*49
15:35:48.412 -> $GPGGA,000002.00,,,,,0,00,,,,,,,*4A
15:35:49.430 -> $GPGGA,000003.00,,,,,0,00,,,,,,,*4B
15:35:50.418 -> $GPGGA,000004.00,,,,,0,00,,,,,,,*4C
15:35:51.421 -> $GPGGA,000005.00,,,,,0,00,,,,,,,*4D
15:35:52.424 -> $GPGGA,000006.00,,,,,0,00,,,,,,,*4E
15:35:53.418 -> $GPGGA,000007.00,,,,,0,00,,,,,,,*4F
15:35:54.431 -> $GPGGA,000008.00,,,,,0,00,,,,,,,*40
15:35:55.434 -> $GPGGA,000009.00,,,,,0,00,,,,,,,*41
15:35:56.438 -> $GPGGA,000010.00,,,,,0,00,,,,,,,*49
15:35:57.442 -> $GPGGA,000011.00,,,,,0,00,,,,,,,*48
15:35:58.445 -> $GPGGA,000012.00,,,,,0,00,,,,,,,*4B
15:35:59.401 -> $GPGGA,000013.00,,,,,0,00,,,,,,,*4A
15:35:59.401 -> $QZQSM,55,9AB3F802BF000A1BDA038495163E29D90000000000000000000000028F15858*7B
15:35:59.448 -> Country: Thailand
15:35:59.448 -> Disaster Category: Tsunami
15:36:03.262 -> $GPGGA,000016.00,,,,,0,00,,,,,,,*4F
15:36:03.262 -> $QZQSM,55,C6B3F802BF000A1BDA038495163E29D9000000000000000000000002FA5DDAC*09
15:36:03.262 -> Country: Thailand
15:36:03.316 -> Disaster Category: Tsunami
15:36:07.130 -> $GPGGA,000020.00,,,,,0,00,,,,,,,*4A
15:36:07.130 -> $QZQSM,55,53ADF6445400050406A08214106A861350C30A1875431128645000131D7F19C*7D
15:36:07.431 -> $GPGGA,000021.00,,,,,0,00,,,,,,,*4B
15:36:08.435 -> $GPGGA,000022.00,,,,,0,00,,,,,,,*48
15:36:09.438 -> $GPGGA,000023.00,,,,,0,00,,,,,,,*49
15:36:10.441 -> $GPGGA,000024.00,,,,,0,00,,,,,,,*4E
15:36:11.439 -> $GPGGA,000025.00,,,,,0,00,,,,,,,*4F
15:36:11.439 -> $QZQSM,55,9AB3F802BF000A1BDA038495163E29D900000000000000000000000368CA404*09
15:36:11.439 -> Country: Thailand
15:36:11.439 -> Disaster Category: Tsunami
15:36:15.292 -> $GPGGA,000028.00,,,,,0,00,,,,,,,*42
15:36:15.292 -> $QZQSM,55,C6B3F802BF000A1BDA038495163E29D9000000000000000000000003BF375C4*7A
15:36:15.292 -> Country: Thailand
15:36:15.292 -> Disaster Category: Tsunami
15:36:19.160 -> $GPGGA,000032.00,,,,,0,00,,,,,,,*49
15:36:19.160 -> $QZQSM,55,53B3F802BF000A1BDA038495163E29D9000000000000000000000003D778428*09
15:36:19.160 -> Country: Thailand
15:36:19.160 -> Disaster Category: Tsunami
15:36:22.975 -> $GPGGA,000036.00,,,,,0,00,,,,,,,*4D
15:36:22.975 -> $QZQSM,55,9AB3F802BF000A1BDA038495163E29D900000000000000000000000005C0888*78
15:36:22.975 -> Country: Thailand
15:36:22.975 -> Disaster Category: Tsunami
15:36:26.835 -> $GPGGA,063628.00,,,,,0,00,,,,,,,*41
15:36:26.835 -> $QZQSM,55,C6ADF6444F000283F2507F8A101942082841A508D4A11FA81FE000105117BD0*0B
15:36:27.839 -> $GPGGA,063629.00,,,,,0,00,,,,,,,*40
15:36:28.796 -> $GPGGA,063630.00,,,,,0,00,,,,,,,*48
15:36:29.800 -> $GPGGA,063631.00,,,,,0,00,,,,,,,*49
15:36:30.803 -> $GPGGA,063632.00,,,,,0,00,,,,,,,*4A
15:36:30.803 -> $QZQSM,55,53B3F802BF000A1BDA038495163E29D9000000000000000000000000BA728A4*03
15:36:30.803 -> Country: Thailand
15:36:30.850 -> Disaster Category: Tsunami
15:36:34.663 -> $GPGGA,063635.00,,,,,0,00,,,,,,,*4D
15:36:34.663 -> $QZQSM,55,9AB3F802BF000A1BDA038495163E29D9000000000000000000000000C6E6F50*73
15:36:34.663 -> Country: Thailand
15:36:34.663 -> Disaster Category: Tsunami
15:36:38.531 -> $GPGGA,063639.00,3540.1884,N,13944.5769,E,1,04,2.6,-67.9,M,39.1,M,,*7A
15:36:38.531 -> $QZQSM,55,C6B3F802BF000A1BDA038495163E29D900000000000000000000000135E2514*7B
15:36:38.531 -> Country: Thailand
15:36:38.531 -> Disaster Category: Tsunami
15:36:42.393 -> $GPGGA,063643.00,3540.1868,N,13944.5778,E,1,04,2.6,-31.8,M,39.1,M,,*77
15:36:42.694 -> $GPGGA,063644.00,3540.1869,N,13944.5779,E,1,04,2.6,-26.8,M,39.1,M,,*76
15:36:42.694 -> $QZQSM,55,53B3F802BF000A1BDA038495163E29D90000000000000000000000015DAD4F8*77
15:36:42.694 -> Country: Thailand
15:36:42.694 -> Disaster Category: Tsunami
15:36:46.563 -> $GPGGA,063647.00,3540.1887,N,13944.5772,E,1,04,2.6,-22.1,M,39.1,M,,*73
15:36:46.563 -> $QZQSM,55,9AADF6445180054474A88FD51F6AA3F254BC2A9798000000000000119E7E6E4*06
15:36:46.710 -> $GPGGA,063648.00,3540.1894,N,13944.5764,E,1,04,2.6,-22.8,M,39.1,M,,*70
15:36:47.714 -> $GPGGA,063649.00,3540.1900,N,13944.5759,E,1,04,2.6,-24.4,M,39.1,M,,*79
15:36:48.718 -> $GPGGA,063650.00,3540.1903,N,13944.5755,E,1,04,2.6,-26.1,M,39.1,M,,*79
15:36:49.675 -> $GPGGA,063651.00,3540.1902,N,13944.5754,E,1,04,2.6,-27.0,M,39.1,M,,*78
15:36:50.678 -> $GPGGA,063652.00,3540.1897,N,13944.5758,E,1,04,2.6,-28.0,M,39.1,M,,*75
15:36:50.678 -> $QZQSM,55,C6B3F802BF000A1BDA038495163E29D9000000000000000000000001F6C42CC*0F
15:36:50.725 -> Country: Thailand
15:36:50.725 -> Disaster Category: Tsunami
15:36:54.539 -> $GPGGA,063655.00,3540.1894,N,13944.5745,E,1,04,2.6,-27.3,M,39.1,M,,*71
15:36:54.539 -> $QZQSM,55,53B3F802BF000A1BDA038495163E29D900000000000000000000000230A7874*04
15:36:54.539 -> Country: Thailand
15:36:54.539 -> Disaster Category: Tsunami
15:36:58.405 -> $GPGGA,063659.00,3540.1891,N,13944.5739,E,1,03,2.4,-25.8,M,39.1,M,,*7F
15:36:58.706 -> $GPGGA,063700.00,3540.1889,N,13944.5740,E,1,04,2.6,-25.7,M,39.1,M,,*7F
15:36:58.706 -> $QZQSM,55,9AB3F802BF000A1BDA038495163E29D90000000000000000000000024C33F80*0D
15:36:58.706 -> Country: Thailand
15:36:58.706 -> Disaster Category: Tsunami
15:37:02.566 -> $GPGGA,063703.00,3540.1885,N,13944.5751,E,1,06,2.5,-22.6,M,39.1,M,,*77
15:37:02.566 -> $QZQSM,55,C6B3F802BF000A1BDA038495163E29D90000000000000000000000029BCEE40*05
15:37:02.566 -> Country: Thailand
15:37:02.566 -> Disaster Category: Tsunami
15:37:06.432 -> $GPGGA,063707.00,3540.1881,N,13944.5775,E,1,06,2.5,-15.3,M,39.1,M,,*70
15:37:06.679 -> $GPGGA,063708.00,3540.1879,N,13944.5782,E,1,06,2.5,-14.6,M,39.1,M,,*74
15:37:06.679 -> $QZQSM,55,53ADF6445400050C9EA201D45DEA8BC7543F2A88AD51182A23500012F6F3CB4*0E
15:37:07.683 -> $GPGGA,063709.00,3540.1877,N,13944.5788,E,1,06,2.5,-13.9,M,39.1,M,,*79
15:37:08.687 -> $GPGGA,063710.00,3540.1877,N,13944.5788,E,1,06,2.5,-13.9,M,39.1,M,,*71
15:37:09.690 -> $GPGGA,063711.00,3540.1877,N,13944.5788,E,1,06,2.5,-13.9,M,39.1,M,,*70
15:37:10.693 -> $GPGGA,063712.00,3540.1877,N,13944.5788,E,1,06,2.5,-13.9,M,39.1,M,,*73
15:37:10.693 -> $QZQSM,55,9AB3F802BF000A1BDA038495163E29D900000000000000000000000309597E8*7A
15:37:10.693 -> Country: Thailand
15:37:10.693 -> Disaster Category: Tsunami
15:37:14.559 -> $GPGGA,063715.00,3540.1877,N,13944.5788,E,1,06,2.5,-13.9,M,39.1,M,,*74
15:37:14.559 -> $QZQSM,55,C6B3F802BF000A1BDA038495163E29D90000000000000000000000037C1121C*0C
15:37:14.559 -> Country: Thailand
15:37:14.559 -> Disaster Category: Tsunami
15:37:18.420 -> $GPGGA,063719.00,3540.1877,N,13944.5788,E,1,06,2.5,-13.9,M,39.1,M,,*78
15:37:18.674 -> $GPGGA,063720.00,3540.1879,N,13944.5788,E,1,06,2.5,-13.9,M,39.1,M,,*7C
15:37:18.721 -> $QZQSM,55,53B3F802BF000A1BDA038495163E29D9000000000000000000000003B6EB7C4*78
15:37:18.721 -> Country: Thailand
15:37:18.721 -> Disaster Category: Tsunami
15:37:22.534 -> $GPGGA,063723.00,3540.1889,N,13944.5795,E,1,06,2.5,-11.0,M,39.1,M,,*77
15:37:22.534 -> $QZQSM,55,9AB3F802BF000A1BDA038495163E29D9000000000000000000000003CA7F030*75
15:37:22.588 -> Country: Thailand
15:37:22.588 -> Disaster Category: Tsunami
15:37:26.400 -> $GPGGA,063727.00,3540.1900,N,13944.5805,E,1,07,2.2,-5.9,M,39.1,M,,*4F
15:37:26.400 -> $QZQSM,55,C6ADF6445400050406A08214106A861350C30A187543112864500010183ACFC*7F
15:37:26.701 -> $GPGGA,063728.00,3540.1903,N,13944.5808,E,1,06,2.3,-4.9,M,39.1,M,,*4F
15:37:27.704 -> $GPGGA,063729.00,3540.1903,N,13944.5808,E,1,07,2.2,-4.9,M,39.1,M,,*4E
15:37:28.708 -> $GPGGA,063730.00,3540.1903,N,13944.5808,E,1,07,2.2,-4.9,M,39.1,M,,*46
15:37:29.711 -> $GPGGA,063731.00,3540.1903,N,13944.5808,E,1,07,2.2,-4.9,M,39.1,M,,*47
15:37:30.714 -> $GPGGA,063732.00,3540.1903,N,13944.5808,E,1,07,2.2,-4.9,M,39.1,M,,*44
15:37:30.714 -> $QZQSM,55,53B3F802BF000A1BDA038495163E29D90000000000000000000000007954F7C*75
15:37:30.714 -> Country: Thailand
15:37:30.714 -> Disaster Category: Tsunami
15:37:34.573 -> $GPGGA,063735.00,3540.1903,N,13944.5810,E,1,07,2.2,-4.9,M,39.1,M,,*4A
15:37:34.573 -> $QZQSM,55,9AB3F802BF000A1BDA038495163E29D9000000000000000000000000A775CBC*00
15:37:34.573 -> Country: Thailand
15:37:34.573 -> Disaster Category: Tsunami
15:37:38.387 -> $GPGGA,063739.00,3540.1903,N,13944.5810,E,1,07,2.2,-4.9,M,39.1,M,,*46
15:37:38.688 -> $GPGGA,063740.00,3540.1903,N,13944.5810,E,1,07,2.2,-4.9,M,39.1,M,,*48
15:37:38.688 -> $QZQSM,55,C6B3F802BF000A1BDA038495163E29D9000000000000000000000000D23D948*0F
15:37:38.688 -> Country: Thailand
15:37:38.688 -> Disaster Category: Tsunami
15:37:42.557 -> $GPGGA,063743.00,3540.1906,N,13944.5810,E,1,07,2.2,-3.4,M,39.1,M,,*44
15:37:42.557 -> $QZQSM,55,53B3F802BF000A1BDA038495163E29D90000000000000000000000013C3E714*7D
15:37:42.557 -> Country: Thailand
15:37:42.557 -> Disaster Category: Tsunami
15:37:46.418 -> $GPGGA,063747.00,3540.1907,N,13944.5810,E,1,07,2.2,-2.5,M,39.1,M,,*41
15:37:46.719 -> $GPGGA,063748.00,3540.1907,N,13944.5810,E,1,07,2.2,-2.4,M,39.1,M,,*4F
15:37:46.719 -> $QZQSM,55,9AADF6444F000283F2507F8A101942082841A508D4A11FA81FE00011613564C*73
15:37:47.676 -> $GPGGA,063749.00,3540.1907,N,13944.5810,E,1,07,2.2,-2.2,M,39.1,M,,*48
15:37:48.680 -> $GPGGA,063750.00,3540.1907,N,13944.5808,E,1,07,2.2,-2.0,M,39.1,M,,*4B
15:37:49.683 -> $GPGGA,063751.00,3540.1907,N,13944.5806,E,1,07,2.2,-1.9,M,39.1,M,,*4E
15:37:50.687 -> $GPGGA,063752.00,3540.1907,N,13944.5803,E,1,07,2.2,-1.9,M,39.1,M,,*48
15:37:50.687 -> $QZQSM,55,C6B3F802BF000A1BDA038495163E29D90000000000000000000000019757120*05
15:37:50.687 -> Country: Thailand
15:37:50.687 -> Disaster Category: Tsunami
15:37:54.548 -> $GPGGA,063755.00,3540.1908,N,13944.5797,E,1,07,2.2,-1.4,M,39.1,M,,*4F
15:37:54.548 -> $QZQSM,55,53B3F802BF000A1BDA038495163E29D9000000000000000000000001FF180CC*70
15:37:54.548 -> Country: Thailand
15:37:54.548 -> Disaster Category: Tsunami
15:37:58.415 -> $GPGGA,063759.00,3540.1910,N,13944.5792,E,1,07,2.2,-0.6,M,39.1,M,,*4C
15:37:58.415 -> $QZQSM,55,9AB3F802BF000A1BDA038495163E29D90000000000000000000000022DA0C6C*05
15:37:58.415 -> Country: Thailand
15:37:58.415 -> Disaster Category: Tsunami
15:38:02.275 -> $GPGGA,063803.00,3540.1912,N,13944.5791,E,1,07,2.2,-0.1,M,39.1,M,,*4A
15:38:02.676 -> $GPGGA,063804.00,3540.1913,N,13944.5791,E,1,07,2.2,0.1,M,39.1,M,,*61
15:38:02.730 -> $QZQSM,55,C6B3F802BF000A1BDA038495163E29D900000000000000000000000258E8998*71
15:38:02.730 -> Country: Thailand
15:38:02.730 -> Disaster Category: Tsunami
15:38:06.544 -> $GPGGA,063807.00,3540.1917,N,13944.5790,E,1,07,2.2,0.7,M,39.1,M,,*61
15:38:06.544 -> $QZQSM,55,53ADF6445180054474A88FD51F6AA3F254BC2A9798000000000000128FE0D9C*07
15:38:06.691 -> $GPGGA,063808.00,3540.1919,N,13944.5790,E,1,07,2.2,0.7,M,39.1,M,,*60
15:38:07.694 -> $GPGGA,063809.00,3540.1920,N,13944.5790,E,1,07,2.2,0.8,M,39.1,M,,*64
15:38:08.698 -> $GPGGA,063810.00,3540.1922,N,13944.5790,E,1,07,2.2,0.9,M,39.1,M,,*6F
15:38:09.702 -> $GPGGA,063811.00,3540.1923,N,13944.5790,E,1,07,2.2,1.0,M,39.1,M,,*67
15:38:10.705 -> $GPGGA,063812.00,3540.1924,N,13944.5789,E,1,07,2.2,1.0,M,39.1,M,,*6B
15:38:10.705 -> $QZQSM,55,9AB3F802BF000A1BDA038495163E29D9000000000000000000000002EE86BB4*0E
15:38:10.705 -> Country: Thailand
15:38:10.705 -> Disaster Category: Tsunami
15:38:14.572 -> $GPGGA,063815.00,3540.1926,N,13944.5789,E,1,07,2.2,1.3,M,39.1,M,,*6D
15:38:14.572 -> $QZQSM,55,C6B3F802BF000A1BDA038495163E29D90000000000000000000000031D821F0*00
15:38:14.572 -> Country: Thailand
15:38:14.572 -> Disaster Category: Tsunami
15:38:18.387 -> $GPGGA,063819.00,3540.1931,N,13944.5788,E,1,07,2.2,1.6,M,39.1,M,,*63
15:38:18.687 -> $GPGGA,063820.00,3540.1932,N,13944.5787,E,1,07,2.2,1.6,M,39.1,M,,*65
15:38:18.687 -> $QZQSM,55,53B3F802BF000A1BDA038495163E29D900000000000000000000000375CD01C*0C
15:38:18.687 -> Country: Thailand
15:38:18.687 -> Disaster Category: Tsunami
15:38:22.549 -> $GPGGA,063823.00,3540.1935,N,13944.5781,E,1,07,2.2,1.7,M,39.1,M,,*66
15:38:22.549 -> $QZQSM,55,9AB3F802BF000A1BDA038495163E29D9000000000000000000000003ABEC3DC*04
15:38:22.549 -> Country: Thailand
15:38:22.549 -> Disaster Category: Tsunami
15:38:26.416 -> $GPGGA,063827.00,3540.1935,N,13944.5775,E,1,07,2.2,2.0,M,39.1,M,,*6D
15:38:26.717 -> $GPGGA,063828.00,3540.1936,N,13944.5774,E,1,07,2.2,2.0,M,39.1,M,,*60
15:38:26.717 -> $QZQSM,55,C6ADF6445400050C9EA201D45DEA8BC7543F2A88AD51182A23500013DBD6530*0E
15:38:27.721 -> $GPGGA,063829.00,3540.1936,N,13944.5772,E,1,07,2.2,2.1,M,39.1,M,,*66
15:38:28.725 -> $GPGGA,063830.00,3540.1936,N,13944.5772,E,1,07,2.2,2.2,M,39.1,M,,*6D
15:38:29.675 -> $GPGGA,063831.00,3540.1936,N,13944.5771,E,1,07,2.2,2.2,M,39.1,M,,*6F
15:38:30.679 -> $GPGGA,063832.00,3540.1936,N,13944.5770,E,1,07,2.2,2.3,M,39.1,M,,*6C
15:38:30.679 -> $QZQSM,55,53B3F802BF000A1BDA038495163E29D900000000000000000000000018C7C90*7F
15:38:30.732 -> Country: Thailand
15:38:30.732 -> Disaster Category: Tsunami
15:38:34.547 -> $GPGGA,063835.00,3540.1936,N,13944.5770,E,1,07,2.2,2.6,M,39.1,M,,*6E
15:38:34.547 -> $QZQSM,55,9AB3F802BF000A1BDA038495163E29D90000000000000000000000006453B64*72
15:38:34.547 -> Country: Thailand
15:38:34.547 -> Disaster Category: Tsunami
15:38:38.408 -> $GPGGA,063839.00,3540.1936,N,13944.5770,E,1,07,2.2,3.0,M,39.1,M,,*65
15:38:38.709 -> $GPGGA,063840.00,3540.1936,N,13944.5770,E,1,07,2.2,3.2,M,39.1,M,,*69
15:38:38.709 -> $QZQSM,55,C6B3F802BF000A1BDA038495163E29D9000000000000000000000000B3AEAA4*7A
15:38:38.709 -> Country: Thailand
15:38:38.709 -> Disaster Category: Tsunami
15:38:42.577 -> $GPGGA,063843.00,3540.1936,N,13944.5770,E,1,07,2.2,3.3,M,39.1,M,,*6B
15:38:42.577 -> $QZQSM,55,53B3F802BF000A1BDA038495163E29D9000000000000000000000000DBE1B48*74
15:38:42.577 -> Country: Thailand
15:38:42.577 -> Disaster Category: Tsunami
15:38:46.390 -> $GPGGA,063847.00,3540.1934,N,13944.5772,E,1,07,2.2,4.2,M,39.1,M,,*69
15:38:46.390 -> $QZQSM,55,9AADF6445400050406A08214106A861350C30A1875431128645000112818160*7A
15:38:46.691 -> $GPGGA,063848.00,3540.1933,N,13944.5777,E,1,07,2.2,4.4,M,39.1,M,,*62
15:38:47.695 -> $GPGGA,063849.00,3540.1933,N,13944.5779,E,1,07,2.2,4.6,M,39.1,M,,*6F
15:38:48.697 -> $GPGGA,063850.00,3540.1933,N,13944.5780,E,1,07,2.2,4.6,M,39.1,M,,*61
15:38:49.701 -> $GPGGA,063851.00,3540.1932,N,13944.5781,E,1,07,2.2,4.6,M,39.1,M,,*60
15:38:50.705 -> $GPGGA,063852.00,3540.1931,N,13944.5783,E,2,06,2.5,4.6,M,39.1,M,,*67
15:38:50.705 -> $QZQSM,55,C6B3F802BF000A1BDA038495163E29D900000000000000000000000154716F8*75
15:38:50.705 -> Country: Thailand
15:38:50.705 -> Disaster Category: Tsunami
15:38:54.562 -> $GPGGA,063855.00,3540.1930,N,13944.5784,E,2,06,2.5,4.6,M,39.1,M,,*66
15:38:54.562 -> $QZQSM,55,53B3F802BF000A1BDA038495163E29D90000000000000000000000019E8B320*7E
15:38:54.562 -> Country: Thailand
15:38:54.562 -> Disaster Category: Tsunami
15:38:58.429 -> $GPGGA,063859.00,3540.1929,N,13944.5785,E,2,06,2.5,4.6,M,39.1,M,,*63
15:38:58.677 -> $GPGGA,063900.00,3540.1929,N,13944.5785,E,2,06,2.5,4.6,M,39.1,M,,*6E
15:38:58.730 -> $QZQSM,55,9AB3F802BF000A1BDA038495163E29D9000000000000000000000001E21F4D4*73
15:38:58.730 -> Country: Thailand
15:38:58.730 -> Disaster Category: Tsunami
15:39:02.544 -> $GPGGA,063903.00,3540.1929,N,13944.5785,E,2,06,2.5,4.6,M,39.1,M,,*6D
15:39:02.544 -> $QZQSM,55,C6B3F802BF000A1BDA038495163E29D9000000000000000000000002397BA74*04
15:39:02.544 -> Country: Thailand
15:39:02.544 -> Disaster Category: Tsunami
15:39:06.405 -> $GPGGA,063907.00,3540.1930,N,13944.5784,E,2,06,2.5,4.4,M,39.1,M,,*62
15:39:06.707 -> $GPGGA,063908.00,3540.1930,N,13944.5783,E,2,06,2.5,4.3,M,39.1,M,,*6D
15:39:06.707 -> $QZQSM,55,53ADF6444F000283F2507F8A101942082841A508D4A11FA81FE0001270ABD34*09
15:39:07.711 -> $GPGGA,063909.00,3540.1930,N,13944.5783,E,2,06,2.5,4.2,M,39.1,M,,*6D
15:39:08.714 -> $GPGGA,063910.00,3540.1929,N,13944.5783,E,2,06,2.5,4.1,M,39.1,M,,*6E
15:39:09.717 -> $GPGGA,063911.00,3540.1929,N,13944.5783,E,2,06,2.5,4.1,M,39.1,M,,*6F
15:39:10.674 -> $GPGGA,063912.00,3540.1929,N,13944.5783,E,2,06,2.5,4.1,M,39.1,M,,*6C
15:39:10.721 -> $QZQSM,55,9AB3F802BF000A1BDA038495163E29D90000000000000000000000028F15858*7B
15:39:10.721 -> Country: Thailand
15:39:10.721 -> Disaster Category: Tsunami
15:39:14.533 -> $GPGGA,063915.00,3540.1929,N,13944.5782,E,2,06,2.5,4.0,M,39.1,M,,*6B
15:39:14.533 -> $QZQSM,55,C6B3F802BF000A1BDA038495163E29D9000000000000000000000002FA5DDAC*09
15:39:14.587 -> Country: Thailand
15:39:14.587 -> Disaster Category: Tsunami
15:39:18.401 -> $GPGGA,063919.00,3540.1929,N,13944.5780,E,2,06,2.5,4.0,M,39.1,M,,*65
15:39:18.401 -> $QZQSM,55,53B3F802BF000A1BDA038495163E29D9000000000000000000000003145E3F0*7B
15:39:18.401 -> Country: Thailand
15:39:18.401 -> Disaster Category: Tsunami
15:39:22.261 -> $GPGGA,063923.00,3540.1929,N,13944.5779,E,2,06,2.5,4.0,M,39.1,M,,*6A
15:39:22.716 -> $GPGGA,063924.00,3540.1928,N,13944.5779,E,2,06,2.5,4.0,M,39.1,M,,*6C
15:39:22.716 -> $QZQSM,55,9AB3F802BF000A1BDA038495163E29D900000000000000000000000368CA404*09
15:39:22.716 -> Country: Thailand
15:39:22.716 -> Disaster Category: Tsunami
15:39:26.529 -> $GPGGA,063927.00,3540.1924,N,13944.5779,E,2,06,2.5,4.0,M,39.1,M,,*63
15:39:26.576 -> $QZQSM,55,C6ADF6445180054474A88FD51F6AA3F254BC2A979800000000000013A2C5418*78
15:39:26.676 -> $GPGGA,063928.00,3540.1923,N,13944.5779,E,2,06,2.5,4.0,M,39.1,M,,*6B
15:39:27.681 -> $GPGGA,063929.00,3540.1921,N,13944.5779,E,2,06,2.5,4.1,M,39.1,M,,*69
15:39:28.684 -> $GPGGA,063930.00,3540.1921,N,13944.5779,E,2,06,2.5,4.1,M,39.1,M,,*61
15:39:29.687 -> $GPGGA,063931.00,3540.1920,N,13944.5779,E,2,06,2.5,4.1,M,39.1,M,,*61
15:39:30.691 -> $GPGGA,063932.00,3540.1920,N,13944.5779,E,2,06,2.5,4.1,M,39.1,M,,*62
15:39:30.691 -> $QZQSM,55,53B3F802BF000A1BDA038495163E29D9000000000000000000000003D778428*09
15:39:30.691 -> Country: Thailand
15:39:30.691 -> Disaster Category: Tsunami
15:39:34.558 -> $GPGGA,063935.00,3540.1920,N,13944.5779,E,2,06,2.5,4.4,M,39.1,M,,*60
15:39:34.558 -> $QZQSM,55,9AB3F802BF000A1BDA038495163E29D900000000000000000000000005C0888*78
15:39:34.558 -> Country: Thailand
15:39:34.558 -> Disaster Category: Tsunami
15:39:38.419 -> $GPGGA,063939.00,3540.1924,N,13944.5795,E,2,06,2.5,4.9,M,39.1,M,,*67
15:39:38.673 -> $GPGGA,063940.00,3540.1926,N,13944.5799,E,2,06,2.5,5.3,M,39.1,M,,*6C
15:39:38.720 -> $QZQSM,55,C6B3F802BF000A1BDA038495163E29D90000000000000000000000007088D7C*0C
15:39:38.720 -> Country: Thailand
15:39:38.720 -> Disaster Category: Tsunami
15:39:42.534 -> $GPGGA,063943.00,3540.1932,N,13944.5809,E,2,06,2.5,6.6,M,39.1,M,,*6A
15:39:42.534 -> $QZQSM,55,53B3F802BF000A1BDA038495163E29D9000000000000000000000000BA728A4*03
15:39:42.588 -> Country: Thailand
15:39:42.588 -> Disaster Category: Tsunami
15:39:46.401 -> $GPGGA,063947.00,3540.1934,N,13944.5811,E,2,06,2.5,6.8,M,39.1,M,,*6F
15:39:46.702 -> $GPGGA,063948.00,3540.1934,N,13944.5811,E,2,06,2.5,6.8,M,39.1,M,,*60
15:39:46.702 -> $QZQSM,55,9AADF6445400050C9EA201D45DEA8BC7543F2A88AD51182A23500010C394C48*70
15:39:47.706 -> $GPGGA,063949.00,3540.1934,N,13944.5811,E,2,06,2.5,6.8,M,39.1,M,,*61
15:39:48.709 -> $GPGGA,063950.00,3540.1934,N,13944.5811,E,2,06,2.5,6.8,M,39.1,M,,*69
15:39:49.713 -> $GPGGA,063951.00,3540.1934,N,13944.5811,E,2,05,2.7,6.8,M,39.1,M,,*69
15:39:50.717 -> $GPGGA,063952.00,3540.1934,N,13944.5811,E,2,05,2.7,6.8,M,39.1,M,,*6A
15:39:50.717 -> $QZQSM,55,C6B3F802BF000A1BDA038495163E29D900000000000000000000000135E2514*7B
15:39:50.717 -> Country: Thailand
15:39:50.717 -> Disaster Category: Tsunami
15:39:54.529 -> $GPGGA,063955.00,3540.1934,N,13944.5811,E,2,05,2.7,6.8,M,39.1,M,,*6D
15:39:54.576 -> $QZQSM,55,53B3F802BF000A1BDA038495163E29D90000000000000000000000015DAD4F8*77
15:39:54.576 -> Country: Thailand
15:39:54.576 -> Disaster Category: Tsunami
15:39:58.389 -> $GPGGA,063959.00,3540.1934,N,13944.5811,E,2,06,2.4,6.8,M,39.1,M,,*61
15:39:58.690 -> $GPGGA,064000.00,3540.1933,N,13944.5811,E,2,06,2.4,7.3,M,39.1,M,,*6E
15:39:58.690 -> $QZQSM,55,9AB3F802BF000A1BDA038495163E29D9000000000000000000000001838C738*7B
15:39:58.690 -> Country: Thailand
15:39:58.690 -> Disaster Category: Tsunami
15:40:02.557 -> $GPGGA,064003.00,3540.1930,N,13944.5808,E,2,06,2.4,10.6,M,39.1,M,,*55
15:40:02.557 -> $QZQSM,55,C6B3F802BF000A1BDA038495163E29D9000000000000000000000001F6C42CC*0F
15:40:02.557 -> Country: Thailand
15:40:02.557 -> Disaster Category: Tsunami
15:40:06.418 -> $GPGGA,064007.00,3540.1927,N,13944.5806,E,2,06,2.4,10.7,M,39.1,M,,*58
15:40:06.418 -> $QZQSM,55,53ADF6445400050406A08214106A861350C30A1875431128645000123986A18*7F
15:40:06.707 -> $GPGGA,064008.00,3540.1927,N,13944.5806,E,2,06,2.4,10.7,M,39.1,M,,*57
15:40:07.719 -> $GPGGA,064009.00,3540.1923,N,13944.5806,E,2,06,2.4,10.7,M,39.1,M,,*52
15:40:08.721 -> $GPGGA,064010.00,3540.1921,N,13944.5806,E,2,06,2.4,10.7,M,39.1,M,,*58
15:40:09.725 -> $GPGGA,064011.00,3540.1920,N,13944.5805,E,2,06,2.4,10.7,M,39.1,M,,*5B
15:40:10.674 -> $GPGGA,064012.00,3540.1920,N,13944.5805,E,2,06,2.4,10.7,M,39.1,M,,*58
15:40:10.727 -> $QZQSM,55,9AB3F802BF000A1BDA038495163E29D90000000000000000000000024C33F80*0D
15:40:10.727 -> Country: Thailand
15:40:10.727 -> Disaster Category: Tsunami
15:40:14.541 -> $GPGGA,064015.00,3540.1919,N,13944.5804,E,2,06,2.4,10.7,M,39.1,M,,*54
15:40:14.541 -> $QZQSM,55,C6B3F802BF000A1BDA038495163E29D90000000000000000000000029BCEE40*05
15:40:14.541 -> Country: Thailand
15:40:14.541 -> Disaster Category: Tsunami
15:40:18.403 -> $GPGGA,064019.00,3540.1918,N,13944.5804,E,2,06,2.4,10.5,M,39.1,M,,*5B
15:40:18.704 -> $GPGGA,064020.00,3540.1918,N,13944.5804,E,2,06,2.4,10.3,M,39.1,M,,*57
15:40:18.704 -> $QZQSM,55,53B3F802BF000A1BDA038495163E29D9000000000000000000000002F381FAC*72
15:40:18.704 -> Country: Thailand
15:40:18.704 -> Disaster Category: Tsunami
15:40:22.571 -> $GPGGA,064023.00,3540.1916,N,13944.5805,E,2,06,2.4,9.4,M,39.1,M,,*64
15:40:22.571 -> $QZQSM,55,9AB3F802BF000A1BDA038495163E29D900000000000000000000000309597E8*7A
15:40:22.571 -> Country: Thailand
15:40:22.571 -> Disaster Category: Tsunami
15:40:26.385 -> $GPGGA,064027.00,3540.1915,N,13944.5805,E,2,06,2.4,8.4,M,39.1,M,,*62
15:40:26.685 -> $GPGGA,064028.00,3540.1915,N,13944.5804,E,2,06,2.4,8.3,M,39.1,M,,*6B
15:40:26.685 -> $QZQSM,55,C6ADF6444F000283F2507F8A101942082841A508D4A11FA81FE000135D8E4B0*76
15:40:27.689 -> $GPGGA,064029.00,3540.1915,N,13944.5804,E,2,06,2.4,8.3,M,39.1,M,,*6A
15:40:28.693 -> $GPGGA,064030.00,3540.1915,N,13944.5804,E,2,06,2.4,8.3,M,39.1,M,,*62
15:40:29.697 -> $GPGGA,064031.00,3540.1915,N,13944.5804,E,2,06,2.4,8.3,M,39.1,M,,*63
15:40:30.700 -> $GPGGA,064032.00,3540.1915,N,13944.5804,E,2,06,2.4,8.3,M,39.1,M,,*60
15:40:30.700 -> $QZQSM,55,53B3F802BF000A1BDA038495163E29D9000000000000000000000003B6EB7C4*78
15:40:30.700 -> Country: Thailand
15:40:30.700 -> Disaster Category: Tsunami
15:40:34.561 -> $GPGGA,064035.00,3540.1915,N,13944.5804,E,2,06,2.4,8.2,M,39.1,M,,*66
15:40:34.561 -> $QZQSM,55,9AB3F802BF000A1BDA038495163E29D9000000000000000000000003CA7F030*75
15:40:34.561 -> Country: Thailand
15:40:34.561 -> Disaster Category: Tsunami
15:40:38.427 -> $GPGGA,064039.00,3540.1915,N,13944.5804,E,2,06,2.4,8.0,M,39.1,M,,*68
15:40:38.427 -> $QZQSM,55,C6B3F802BF000A1BDA038495163E29D9000000000000000000000000111BE90*04
15:40:38.427 -> Country: Thailand
15:40:38.427 -> Disaster Category: Tsunami
15:40:42.241 -> $GPGGA,064043.00,3540.1917,N,13944.5804,E,2,06,2.4,7.7,M,39.1,M,,*6F
15:40:42.689 -> $GPGGA,064044.00,3540.1918,N,13944.5803,E,2,06,2.4,7.7,M,39.1,M,,*60
15:40:42.689 -> $QZQSM,55,53B3F802BF000A1BDA038495163E29D90000000000000000000000007954F7C*75
15:40:42.689 -> Country: Thailand
15:40:42.689 -> Disaster Category: Tsunami
15:40:46.557 -> $GPGGA,064047.00,3540.1918,N,13944.5800,E,2,06,2.4,7.7,M,39.1,M,,*60
15:40:46.557 -> $QZQSM,55,9AADF6445180054474A88FD51F6AA3F254BC2A979800000000000010BA87D60*00
15:40:46.704 -> $GPGGA,064048.00,3540.1918,N,13944.5798,E,2,06,2.4,7.7,M,39.1,M,,*61
15:40:47.707 -> $GPGGA,064049.00,3540.1918,N,13944.5798,E,2,06,2.4,7.7,M,39.1,M,,*60
15:40:48.710 -> $GPGGA,064050.00,3540.1918,N,13944.5797,E,2,06,2.4,7.5,M,39.1,M,,*65
15:40:49.713 -> $GPGGA,064051.00,3540.1918,N,13944.5797,E,2,06,2.4,7.5,M,39.1,M,,*64
15:40:50.717 -> $GPGGA,064052.00,3540.1918,N,13944.5797,E,2,06,2.4,7.5,M,39.1,M,,*67
15:40:50.717 -> $QZQSM,55,C6B3F802BF000A1BDA038495163E29D9000000000000000000000000D23D948*0F
15:40:50.717 -> Country: Thailand
15:40:50.717 -> Disaster Category: Tsunami
15:40:54.530 -> $GPGGA,064055.00,3540.1918,N,13944.5797,E,2,06,2.4,7.3,M,39.1,M,,*66
15:40:54.584 -> $QZQSM,55,53B3F802BF000A1BDA038495163E29D90000000000000000000000013C3E714*7D
15:40:54.584 -> Country: Thailand
15:40:54.584 -> Disaster Category: Tsunami
15:40:58.398 -> $GPGGA,064059.00,3540.1914,N,13944.5797,E,2,06,2.4,7.0,M,39.1,M,,*65
15:40:58.700 -> $GPGGA,064100.00,3540.1911,N,13944.5797,E,2,06,2.4,6.9,M,39.1,M,,*65
15:40:58.700 -> $QZQSM,55,9AB3F802BF000A1BDA038495163E29D900000000000000000000000140AA0E0*76
15:40:58.700 -> Country: Thailand
15:40:58.700 -> Disaster Category: Tsunami
15:41:02.560 -> $GPGGA,064103.00,3540.1907,N,13944.5798,E,2,06,2.4,6.7,M,39.1,M,,*60
15:41:02.560 -> $QZQSM,55,C6B3F802BF000A1BDA038495163E29D90000000000000000000000019757120*05
15:41:02.560 -> Country: Thailand
15:41:02.560 -> Disaster Category: Tsunami
15:41:06.427 -> $GPGGA,064107.00,3540.1906,N,13944.5799,E,2,06,2.4,6.7,M,39.1,M,,*64
15:41:06.674 -> $GPGGA,064108.00,3540.1906,N,13944.5799,E,2,06,2.4,6.6,M,39.1,M,,*6A
15:41:06.728 -> $QZQSM,55,53ADF6445400050C9EA201D45DEA8BC7543F2A88AD51182A23500011FA6A3D4*0E
15:41:07.677 -> $GPGGA,064109.00,3540.1906,N,13944.5799,E,2,06,2.4,6.6,M,39.1,M,,*6B
15:41:08.680 -> $GPGGA,064110.00,3540.1906,N,13944.5799,E,2,06,2.4,6.6,M,39.1,M,,*63
15:41:09.684 -> $GPGGA,064111.00,3540.1905,N,13944.5799,E,2,06,2.4,6.6,M,39.1,M,,*61
15:41:10.688 -> $GPGGA,064112.00,3540.1905,N,13944.5799,E,2,06,2.4,6.6,M,39.1,M,,*62
15:41:10.688 -> $QZQSM,55,9AB3F802BF000A1BDA038495163E29D90000000000000000000000022DA0C6C*05
15:41:10.688 -> Country: Thailand
15:41:10.688 -> Disaster Category: Tsunami
15:41:14.554 -> $GPGGA,064115.00,3540.1904,N,13944.5799,E,2,06,2.4,6.6,M,39.1,M,,*64
15:41:14.554 -> $QZQSM,55,C6B3F802BF000A1BDA038495163E29D900000000000000000000000258E8998*71
15:41:14.554 -> Country: Thailand
15:41:14.554 -> Disaster Category: Tsunami
15:41:18.415 -> $GPGGA,064119.00,3540.1905,N,13944.5796,E,2,06,2.4,6.5,M,39.1,M,,*65
15:41:18.716 -> $GPGGA,064120.00,3540.1905,N,13944.5794,E,2,06,2.4,6.5,M,39.1,M,,*6D
15:41:18.716 -> $QZQSM,55,53B3F802BF000A1BDA038495163E29D90000000000000000000000029212C40*05
15:41:18.716 -> Country: Thailand
15:41:18.716 -> Disaster Category: Tsunami
15:41:22.528 -> $GPGGA,064123.00,3540.1906,N,13944.5787,E,2,06,2.4,6.5,M,39.1,M,,*6F
15:41:22.582 -> $QZQSM,55,9AB3F802BF000A1BDA038495163E29D9000000000000000000000002EE86BB4*0E
15:41:22.582 -> Country: Thailand
15:41:22.582 -> Disaster Category: Tsunami
15:41:26.396 -> $GPGGA,064127.00,3540.1907,N,13944.5781,E,2,06,2.4,6.5,M,39.1,M,,*6C
15:41:26.396 -> $QZQSM,55,C6ADF6445400050406A08214106A861350C30A18754311286450001314A339C*7F
15:41:26.697 -> $GPGGA,064128.00,3540.1907,N,13944.5780,E,2,06,2.4,6.5,M,39.1,M,,*62
15:41:27.701 -> $GPGGA,064129.00,3540.1907,N,13944.5780,E,2,06,2.4,6.4,M,39.1,M,,*62
15:41:28.704 -> $GPGGA,064130.00,3540.1908,N,13944.5780,E,2,06,2.4,6.4,M,39.1,M,,*65
15:41:29.708 -> $GPGGA,064131.00,3540.1909,N,13944.5780,E,2,06,2.4,6.4,M,39.1,M,,*65
15:41:30.712 -> $GPGGA,064132.00,3540.1909,N,13944.5780,E,2,06,2.4,6.4,M,39.1,M,,*66
15:41:30.712 -> $QZQSM,55,53B3F802BF000A1BDA038495163E29D900000000000000000000000375CD01C*0C
15:41:30.712 -> Country: Thailand
15:41:30.712 -> Disaster Category: Tsunami
15:41:34.541 -> $GPGGA,064135.00,3540.1912,N,13944.5780,E,2,06,2.4,6.4,M,39.1,M,,*6B
15:41:34.541 -> $QZQSM,55,9AB3F802BF000A1BDA038495163E29D9000000000000000000000003ABEC3DC*04
15:41:34.541 -> Country: Thailand
15:41:34.541 -> Disaster Category: Tsunami
15:41:38.406 -> $GPGGA,064139.00,3540.1917,N,13944.5780,E,2,06,2.4,6.3,M,39.1,M,,*65
15:41:38.693 -> $GPGGA,064140.00,3540.1919,N,13944.5780,E,2,06,2.4,6.4,M,39.1,M,,*62
15:41:38.693 -> $QZQSM,55,C6B3F802BF000A1BDA038495163E29D9000000000000000000000003DEA4628*70
15:41:38.693 -> Country: Thailand
15:41:38.693 -> Disaster Category: Tsunami
15:41:42.567 -> $GPGGA,064143.00,3540.1923,N,13944.5780,E,2,06,2.4,6.4,M,39.1,M,,*68
15:41:42.567 -> $QZQSM,55,53B3F802BF000A1BDA038495163E29D900000000000000000000000018C7C90*7F
15:41:42.567 -> Country: Thailand
15:41:42.567 -> Disaster Category: Tsunami
15:41:46.433 -> $GPGGA,064147.00,3540.1929,N,13944.5788,E,2,06,2.4,6.5,M,39.1,M,,*6F
15:41:46.681 -> $GPGGA,064148.00,3540.1932,N,13944.5792,E,2,06,2.4,6.8,M,39.1,M,,*6C
15:41:46.681 -> $QZQSM,55,9AADF6444F000283F2507F8A101942082841A508D4A11FA81FE0001045CCDC8*0C
15:41:47.684 -> $GPGGA,064149.00,3540.1934,N,13944.5797,E,2,06,2.4,6.9,M,39.1,M,,*6F
15:41:48.687 -> $GPGGA,064150.00,3540.1937,N,13944.5800,E,2,06,2.4,7.2,M,39.1,M,,*6F
15:41:49.691 -> $GPGGA,064151.00,3540.1939,N,13944.5803,E,2,06,2.4,7.4,M,39.1,M,,*65
15:41:50.695 -> $GPGGA,064152.00,3540.1939,N,13944.5803,E,2,06,2.4,7.4,M,39.1,M,,*66
15:41:50.695 -> $QZQSM,55,C6B3F802BF000A1BDA038495163E29D9000000000000000000000000B3AEAA4*7A
15:41:50.695 -> Country: Thailand
15:41:50.695 -> Disaster Category: Tsunami
15:41:54.563 -> $GPGGA,064155.00,3540.1939,N,13944.5803,E,2,06,2.4,7.4,M,39.1,M,,*61
15:41:54.563 -> $QZQSM,55,53B3F802BF000A1BDA038495163E29D9000000000000000000000000DBE1B48*74
15:41:54.563 -> Country: Thailand
15:41:54.563 -> Disaster Category: Tsunami
15:41:58.423 -> $GPGGA,064159.00,3540.1940,N,13944.5807,E,2,06,2.4,7.4,M,39.1,M,,*67
15:41:58.423 -> $QZQSM,55,9AB3F802BF000A1BDA038495163E29D9000000000000000000000001213930C*7E
15:41:58.423 -> Country: Thailand
15:41:58.423 -> Disaster Category: Tsunami
15:42:02.288 -> $GPGGA,064203.00,3540.1940,N,13944.5812,E,2,06,2.4,7.4,M,39.1,M,,*6F
15:42:02.689 -> $GPGGA,064204.00,3540.1940,N,13944.5813,E,2,06,2.4,7.4,M,39.1,M,,*69
15:42:02.689 -> $QZQSM,55,C6B3F802BF000A1BDA038495163E29D900000000000000000000000154716F8*75
15:42:02.689 -> Country: Thailand
15:42:02.689 -> Disaster Category: Tsunami
15:42:06.569 -> $GPGGA,064207.00,3540.1940,N,13944.5814,E,2,06,2.4,7.5,M,39.1,M,,*6C
15:42:06.569 -> $QZQSM,55,53ADF6445180054474A88FD51F6AA3F254BC2A97980000000000001183792FC*03
15:42:06.722 -> $GPGGA,064208.00,3540.1940,N,13944.5814,E,2,06,2.4,7.9,M,39.1,M,,*6F
15:42:07.725 -> $GPGGA,064209.00,3540.1940,N,13944.5819,E,2,06,2.4,9.1,M,39.1,M,,*65
15:42:08.675 -> $GPGGA,064210.00,3540.1940,N,13944.5821,E,2,06,2.4,9.5,M,39.1,M,,*62
15:42:09.679 -> $GPGGA,064211.00,3540.1940,N,13944.5822,E,2,06,2.4,9.7,M,39.1,M,,*62
15:42:10.683 -> $GPGGA,064212.00,3540.1937,N,13944.5822,E,2,06,2.4,9.8,M,39.1,M,,*6E
15:42:10.683 -> $QZQSM,55,9AB3F802BF000A1BDA038495163E29D9000000000000000000000001E21F4D4*73
15:42:10.736 -> Country: Thailand
15:42:10.736 -> Disaster Category: Tsunami
15:42:14.549 -> $GPGGA,064215.00,3540.1927,N,13944.5816,E,2,06,2.4,9.7,M,39.1,M,,*60
15:42:14.549 -> $QZQSM,55,C6B3F802BF000A1BDA038495163E29D9000000000000000000000002397BA74*04
15:42:14.549 -> Country: Thailand
15:42:14.549 -> Disaster Category: Tsunami
15:42:18.410 -> $GPGGA,064219.00,3540.1924,N,13944.5815,E,2,06,2.4,9.7,M,39.1,M,,*6C
15:42:18.711 -> $GPGGA,064220.00,3540.1924,N,13944.5815,E,2,06,2.4,9.7,M,39.1,M,,*66
15:42:18.711 -> $QZQSM,55,53B3F802BF000A1BDA038495163E29D90000000000000000000000025134B98*0A
15:42:18.711 -> Country: Thailand
15:42:18.711 -> Disaster Category: Tsunami
15:42:22.577 -> $GPGGA,064223.00,3540.1909,N,13944.5815,E,2,06,2.4,9.9,M,39.1,M,,*64
15:42:22.577 -> $QZQSM,55,9AB3F802BF000A1BDA038495163E29D90000000000000000000000028F15858*7B
15:42:22.577 -> Country: Thailand
15:42:22.577 -> Disaster Category: Tsunami
15:42:26.392 -> $GPGGA,064227.00,3540.1909,N,13944.5815,E,2,06,2.4,10.0,M,39.1,M,,*51
15:42:26.693 -> $GPGGA,064228.00,3540.1909,N,13944.5815,E,2,06,2.4,10.1,M,39.1,M,,*5F
15:42:26.693 -> $QZQSM,55,C6ADF6445400050C9EA201D45DEA8BC7543F2A88AD51182A23500012FF2FEB4*0A
15:42:27.697 -> $GPGGA,064229.00,3540.1909,N,13944.5815,E,2,06,2.4,10.1,M,39.1,M,,*5E
15:42:28.704 -> $GPGGA,064230.00,3540.1909,N,13944.5815,E,2,06,2.4,10.3,M,39.1,M,,*54
15:42:29.706 -> $GPGGA,064231.00,3540.1909,N,13944.5814,E,2,06,2.4,10.4,M,39.1,M,,*53
15:42:30.710 -> $GPGGA,064232.00,3540.1909,N,13944.5812,E,2,06,2.4,10.4,M,39.1,M,,*56
15:42:30.710 -> $QZQSM,55,53B3F802BF000A1BDA038495163E29D9000000000000000000000003145E3F0*7B
15:42:30.710 -> Country: Thailand
15:42:30.710 -> Disaster Category: Tsunami
15:42:34.569 -> $GPGGA,064235.00,3540.1908,N,13944.5807,E,2,06,2.4,10.4,M,39.1,M,,*54
15:42:34.569 -> $QZQSM,55,9AB3F802BF000A1BDA038495163E29D900000000000000000000000368CA404*09
15:42:34.569 -> Country: Thailand
15:42:34.569 -> Disaster Category: Tsunami
15:42:38.410 -> $GPGGA,064239.00,3540.1908,N,13944.5801,E,2,06,2.4,10.6,M,39.1,M,,*5C
15:42:38.678 -> $GPGGA,064240.00,3540.1908,N,13944.5798,E,2,06,2.4,10.7,M,39.1,M,,*5C
15:42:38.725 -> $QZQSM,55,C6B3F802BF000A1BDA038495163E29D9000000000000000000000003BF375C4*7A
15:42:38.725 -> Country: Thailand
15:42:38.725 -> Disaster Category: Tsunami
15:42:42.538 -> $GPGGA,064243.00,3540.1907,N,13944.5796,E,2,06,2.4,10.9,M,39.1,M,,*50
15:42:42.538 -> $QZQSM,55,53B3F802BF000A1BDA038495163E29D9000000000000000000000003D778428*09
15:42:42.592 -> Country: Thailand
15:42:42.592 -> Disaster Category: Tsunami
15:42:46.405 -> $GPGGA,064247.00,3540.1905,N,13944.5793,E,2,06,2.4,11.0,M,39.1,M,,*5B
15:42:46.405 -> $QZQSM,55,9AADF6445400050406A08214106A861350C30A1875431128645000100CE1AE4*78
15:42:46.706 -> $GPGGA,064248.00,3540.1905,N,13944.5793,E,2,06,2.4,11.2,M,39.1,M,,*56
15:42:47.710 -> $GPGGA,064249.00,3540.1904,N,13944.5793,E,2,06,2.4,11.2,M,39.1,M,,*56
15:42:48.713 -> $GPGGA,064250.00,3540.1902,N,13944.5793,E,2,06,2.4,11.3,M,39.1,M,,*59
15:42:49.717 -> $GPGGA,064251.00,3540.1900,N,13944.5793,E,2,06,2.4,11.4,M,39.1,M,,*5D
15:42:50.720 -> $GPGGA,064252.00,3540.1899,N,13944.5793,E,2,06,2.4,11.4,M,39.1,M,,*5F
15:42:50.720 -> $QZQSM,55,C6B3F802BF000A1BDA038495163E29D90000000000000000000000007088D7C*0C
15:42:50.720 -> Country: Thailand
15:42:50.720 -> Disaster Category: Tsunami
15:42:54.534 -> $GPGGA,064255.00,3540.1898,N,13944.5793,E,2,06,2.4,11.6,M,39.1,M,,*5B
15:42:54.581 -> $QZQSM,55,53B3F802BF000A1BDA038495163E29D9000000000000000000000000BA728A4*03
15:42:54.581 -> Country: Thailand
15:42:54.581 -> Disaster Category: Tsunami
15:42:58.395 -> $GPGGA,064259.00,3540.1897,N,13944.5793,E,2,06,2.4,11.8,M,39.1,M,,*56
15:42:58.696 -> $GPGGA,064300.00,3540.1897,N,13944.5793,E,2,06,2.4,11.8,M,39.1,M,,*5B
15:42:59.700 -> $GPGGA,064301.00,3540.1897,N,13944.5794,E,2,06,2.4,11.9,M,39.1,M,,*5C
15:43:00.704 -> $GPGGA,064302.00,3540.1897,N,13944.5794,E,2,06,2.4,12.0,M,39.1,M,,*55
15:43:01.708 -> $GPGGA,064303.00,3540.1897,N,13944.5794,E,2,06,2.4,12.1,M,39.1,M,,*55
15:43:02.711 -> $GPGGA,064304.00,3540.1897,N,13944.5795,E,2,06,2.4,12.2,M,39.1,M,,*50
15:43:03.714 -> $GPGGA,064305.00,3540.1897,N,13944.5795,E,2,06,2.4,12.2,M,39.1,M,,*51
15:43:04.718 -> $GPGGA,064306.00,3540.1896,N,13944.5796,E,2,06,2.4,12.3,M,39.1,M,,*51
15:43:05.675 -> $GPGGA,064307.00,3540.1896,N,13944.5797,E,2,06,2.4,12.3,M,39.1,M,,*51
15:43:06.679 -> $GPGGA,064308.00,3540.1896,N,13944.5798,E,2,06,2.4,12.3,M,39.1,M,,*51
15:43:06.726 -> $QZQSM,56,53ADF6444F000283F2507F8A101942082841A508D4A11FA81FE000117C32254*08
15:43:07.682 -> $GPGGA,064309.00,3540.1896,N,13944.5800,E,2,06,2.4,12.4,M,39.1,M,,*59
15:43:08.685 -> $GPGGA,064310.00,3540.1896,N,13944.5801,E,2,06,2.4,12.4,M,39.1,M,,*50
15:43:09.689 -> $GPGGA,064311.00,3540.1895,N,13944.5803,E,2,06,2.4,12.4,M,39.1,M,,*50
15:43:10.692 -> $GPGGA,064312.00,3540.1895,N,13944.5806,E,2,06,2.4,12.4,M,39.1,M,,*56
15:43:10.692 -> $QZQSM,56,9AB3F802BF000A1BDA038495163E29D9000000000000000000000001838C738*78
15:43:10.692 -> Country: Thailand
15:43:10.692 -> Disaster Category: Tsunami
15:43:14.551 -> $GPGGA,064315.00,3540.1894,N,13944.5816,E,2,06,2.4,12.7,M,39.1,M,,*52
15:43:14.551 -> $QZQSM,56,C6B3F802BF000A1BDA038495163E29D9000000000000000000000001F6C42CC*0C
15:43:14.551 -> Country: Thailand
15:43:14.551 -> Disaster Category: Tsunami
15:43:18.418 -> $GPGGA,064319.00,3540.1893,N,13944.5827,E,2,06,2.4,13.0,M,39.1,M,,*5D
15:43:18.719 -> $GPGGA,064320.00,3540.1892,N,13944.5829,E,2,06,2.4,13.0,M,39.1,M,,*58
15:43:18.719 -> $QZQSM,56,53B3F802BF000A1BDA038495163E29D900000000000000000000000230A7874*07
15:43:18.719 -> Country: Thailand
15:43:18.719 -> Disaster Category: Tsunami
15:43:22.533 -> $GPGGA,064323.00,3540.1892,N,13944.5833,E,2,06,2.4,13.1,M,39.1,M,,*51
15:43:22.580 -> $QZQSM,56,9AB3F802BF000A1BDA038495163E29D90000000000000000000000024C33F80*0E
15:43:22.580 -> Country: Thailand
15:43:22.580 -> Disaster Category: Tsunami
15:43:26.393 -> $GPGGA,064327.00,3540.1891,N,13944.5837,E,2,06,2.4,13.1,M,39.1,M,,*52
15:43:26.694 -> $GPGGA,064328.00,3540.1891,N,13944.5840,E,2,06,2.4,13.1,M,39.1,M,,*5D
15:43:26.694 -> $QZQSM,56,C6ADF6445180054474A88FD51F6AA3F254BC2A979800000000000012863CF9C*00
15:43:27.698 -> $GPGGA,064329.00,3540.1891,N,13944.5843,E,2,06,2.4,13.1,M,39.1,M,,*5F
15:43:28.702 -> $GPGGA,064330.00,3540.1891,N,13944.5845,E,2,06,2.4,13.1,M,39.1,M,,*51
15:43:29.706 -> $GPGGA,064331.00,3540.1891,N,13944.5847,E,2,06,2.4,13.1,M,39.1,M,,*52
15:43:30.709 -> $GPGGA,064332.00,3540.1891,N,13944.5849,E,2,06,2.4,13.1,M,39.1,M,,*5F
15:43:30.709 -> $QZQSM,56,53B3F802BF000A1BDA038495163E29D9000000000000000000000002F381FAC*71
15:43:30.709 -> Country: Thailand
15:43:30.709 -> Disaster Category: Tsunami
15:43:34.574 -> $GPGGA,064335.00,3540.1891,N,13944.5855,E,2,06,2.4,13.1,M,39.1,M,,*55
15:43:34.574 -> $QZQSM,56,9AB3F802BF000A1BDA038495163E29D900000000000000000000000309597E8*79
15:43:34.574 -> Country: Thailand
15:43:34.574 -> Disaster Category: Tsunami
15:43:38.388 -> $GPGGA,064339.00,3540.1891,N,13944.5862,E,2,06,2.4,13.2,M,39.1,M,,*5E
15:43:38.435 -> $QZQSM,56,C6B3F802BF000A1BDA038495163E29D90000000000000000000000037C1121C*0F
15:43:38.435 -> Country: Thailand
15:43:38.435 -> Disaster Category: Tsunami
15:43:42.248 -> $GPGGA,064343.00,3540.1891,N,13944.5862,E,2,06,2.4,13.2,M,39.1,M,,*53
15:43:42.703 -> $GPGGA,064344.00,3540.1892,N,13944.5862,E,2,06,2.4,13.2,M,39.1,M,,*57
15:43:42.703 -> $QZQSM,56,53B3F802BF000A1BDA038495163E29D9000000000000000000000003B6EB7C4*7B
15:43:42.703 -> Country: Thailand
15:43:42.703 -> Disaster Category: Tsunami
15:43:46.562 -> $GPGGA,064347.00,3540.1893,N,13944.5862,E,2,06,2.4,13.1,M,39.1,M,,*56
15:43:46.562 -> $QZQSM,56,9AADF6445400050C9EA201D45DEA8BC7543F2A88AD51182A23500013CF0D328*0A
15:43:46.716 -> $GPGGA,064348.00,3540.1893,N,13944.5862,E,2,06,2.4,13.1,M,39.1,M,,*59
15:43:47.720 -> $GPGGA,064349.00,3540.1894,N,13944.5862,E,2,06,2.4,13.1,M,39.1,M,,*5F
15:43:48.724 -> $GPGGA,064350.00,3540.1895,N,13944.5862,E,2,06,2.4,13.1,M,39.1,M,,*56
15:43:49.727 -> $GPGGA,064351.00,3540.1896,N,13944.5862,E,2,06,2.4,13.1,M,39.1,M,,*54
15:43:50.677 -> $GPGGA,064352.00,3540.1897,N,13944.5862,E,2,06,2.4,13.1,M,39.1,M,,*56
15:43:50.730 -> $QZQSM,56,C6B3F802BF000A1BDA038495163E29D9000000000000000000000000111BE90*07
15:43:50.730 -> Country: Thailand
15:43:50.730 -> Disaster Category: Tsunami
15:43:54.543 -> $GPGGA,064355.00,3540.1898,N,13944.5857,E,2,06,2.4,13.1,M,39.1,M,,*58
15:43:54.543 -> $QZQSM,56,53B3F802BF000A1BDA038495163E29D90000000000000000000000007954F7C*76
15:43:54.543 -> Country: Thailand
15:43:54.543 -> Disaster Category: Tsunami
15:43:58.404 -> $GPGGA,064359.00,3540.1899,N,13944.5852,E,2,06,2.4,13.1,M,39.1,M,,*50
15:43:58.705 -> $GPGGA,064400.00,3540.1899,N,13944.5852,E,2,06,2.4,13.1,M,39.1,M,,*5B
15:43:58.705 -> $QZQSM,56,9AB3F802BF000A1BDA038495163E29D9000000000000000000000000A775CBC*03
15:43:58.705 -> Country: Thailand
15:43:58.705 -> Disaster Category: Tsunami
15:44:02.570 -> $GPGGA,064403.00,3540.1901,N,13944.5850,E,2,06,2.3,13.1,M,39.1,M,,*5D
15:44:02.570 -> $QZQSM,56,C6B3F802BF000A1BDA038495163E29D9000000000000000000000000D23D948*0C
15:44:02.570 -> Country: Thailand
15:44:02.570 -> Disaster Category: Tsunami
15:44:06.431 -> $GPGGA,064407.00,3540.1903,N,13944.5848,E,2,06,2.3,13.2,M,39.1,M,,*51
15:44:06.685 -> $GPGGA,064408.00,3540.1904,N,13944.5847,E,2,06,2.3,13.3,M,39.1,M,,*57
15:44:06.685 -> $QZQSM,56,53ADF6445400050406A08214106A861350C30A187543112864500011351F578*78
15:44:07.688 -> $GPGGA,064409.00,3540.1904,N,13944.5847,E,2,06,2.3,13.4,M,39.1,M,,*51
15:44:08.692 -> $GPGGA,064410.00,3540.1904,N,13944.5846,E,2,06,2.3,13.5,M,39.1,M,,*59
15:44:09.695 -> $GPGGA,064411.00,3540.1905,N,13944.5845,E,2,06,2.3,13.6,M,39.1,M,,*59
15:44:10.698 -> $GPGGA,064412.00,3540.1906,N,13944.5844,E,2,06,2.3,13.7,M,39.1,M,,*59
15:44:10.698 -> $QZQSM,56,9AB3F802BF000A1BDA038495163E29D900000000000000000000000140AA0E0*75
15:44:10.698 -> Country: Thailand
15:44:10.698 -> Disaster Category: Tsunami
15:44:14.559 -> $GPGGA,064415.00,3540.1907,N,13944.5841,E,2,06,2.3,14.0,M,39.1,M,,*5A
15:44:14.559 -> $QZQSM,56,C6B3F802BF000A1BDA038495163E29D90000000000000000000000019757120*06
15:44:14.559 -> Country: Thailand
15:44:14.559 -> Disaster Category: Tsunami
15:44:18.427 -> $GPGGA,064419.00,3540.1908,N,13944.5838,E,2,06,2.3,14.1,M,39.1,M,,*56
15:44:18.728 -> $GPGGA,064420.00,3540.1909,N,13944.5838,E,2,06,2.3,14.1,M,39.1,M,,*5D
15:44:18.728 -> $QZQSM,56,53B3F802BF000A1BDA038495163E29D9000000000000000000000001FF180CC*73
15:44:18.728 -> Country: Thailand
15:44:18.728 -> Disaster Category: Tsunami
15:44:22.542 -> $GPGGA,064423.00,3540.1909,N,13944.5838,E,2,07,2.2,14.1,M,39.1,M,,*5E
15:44:22.542 -> $QZQSM,56,9AB3F802BF000A1BDA038495163E29D90000000000000000000000022DA0C6C*06
15:44:22.542 -> Country: Thailand
15:44:22.542 -> Disaster Category: Tsunami
15:44:26.401 -> $GPGGA,064427.00,3540.1910,N,13944.5837,E,2,07,2.2,14.2,M,39.1,M,,*5E
15:44:26.401 -> $QZQSM,56,C6ADF6444F000283F2507F8A101942082841A508D4A11FA81FE000127977F34*71
15:44:26.702 -> $GPGGA,064428.00,3540.1910,N,13944.5837,E,2,07,2.2,14.2,M,39.1,M,,*51
15:44:27.706 -> $GPGGA,064429.00,3540.1910,N,13944.5837,E,2,07,2.2,14.2,M,39.1,M,,*50
15:44:28.710 -> $GPGGA,064430.00,3540.1910,N,13944.5837,E,2,07,2.2,14.2,M,39.1,M,,*58
15:44:29.713 -> $GPGGA,064431.00,3540.1910,N,13944.5837,E,2,07,2.2,14.2,M,39.1,M,,*59
15:44:30.716 -> $GPGGA,064432.00,3540.1910,N,13944.5837,E,2,07,2.2,14.2,M,39.1,M,,*5A
15:44:30.716 -> $QZQSM,56,53B3F802BF000A1BDA038495163E29D90000000000000000000000029212C40*06
15:44:30.716 -> Country: Thailand
15:44:30.716 -> Disaster Category: Tsunami
15:44:34.581 -> $GPGGA,064435.00,3540.1911,N,13944.5837,E,2,07,2.2,14.2,M,39.1,M,,*5C
15:44:34.581 -> $QZQSM,56,9AB3F802BF000A1BDA038495163E29D9000000000000000000000002EE86BB4*0D
15:44:34.581 -> Country: Thailand
15:44:34.581 -> Disaster Category: Tsunami
15:44:38.394 -> $GPGGA,064439.00,3540.1911,N,13944.5835,E,2,07,2.2,14.2,M,39.1,M,,*52
15:44:38.695 -> $GPGGA,064440.00,3540.1912,N,13944.5834,E,2,07,2.2,14.2,M,39.1,M,,*5E
15:44:38.695 -> $QZQSM,56,C6B3F802BF000A1BDA038495163E29D90000000000000000000000031D821F0*03
15:44:38.695 -> Country: Thailand
15:44:38.695 -> Disaster Category: Tsunami
15:44:42.557 -> $GPGGA,064443.00,3540.1912,N,13944.5831,E,2,07,2.2,14.2,M,39.1,M,,*58
15:44:42.557 -> $QZQSM,56,53B3F802BF000A1BDA038495163E29D900000000000000000000000375CD01C*0F
15:44:42.557 -> Country: Thailand
15:44:42.557 -> Disaster Category: Tsunami
15:44:46.423 -> $GPGGA,064447.00,3540.1912,N,13944.5828,E,2,07,2.2,14.3,M,39.1,M,,*55
15:44:46.723 -> $GPGGA,064448.00,3540.1912,N,13944.5827,E,2,07,2.2,14.3,M,39.1,M,,*55
15:44:46.723 -> $QZQSM,56,9AADF6445180054474A88FD51F6AA3F254BC2A979800000000000013B61E200*7C
15:44:47.727 -> $GPGGA,064449.00,3540.1912,N,13944.5826,E,2,07,2.2,14.4,M,39.1,M,,*52
15:44:48.677 -> $GPGGA,064450.00,3540.1912,N,13944.5825,E,2,07,2.2,14.4,M,39.1,M,,*59
15:44:49.681 -> $GPGGA,064451.00,3540.1912,N,13944.5825,E,2,07,2.2,14.4,M,39.1,M,,*58
15:44:50.683 -> $GPGGA,064452.00,3540.1912,N,13944.5824,E,2,07,2.2,14.4,M,39.1,M,,*5A
15:44:50.683 -> $QZQSM,56,C6B3F802BF000A1BDA038495163E29D9000000000000000000000003DEA4628*73
15:44:50.737 -> Country: Thailand
15:44:50.737 -> Disaster Category: Tsunami
15:44:54.550 -> $GPGGA,064455.00,3540.1912,N,13944.5823,E,2,07,2.2,14.4,M,39.1,M,,*5A
15:44:54.550 -> $QZQSM,56,53B3F802BF000A1BDA038495163E29D900000000000000000000000018C7C90*7C
15:44:54.550 -> Country: Thailand
15:44:54.550 -> Disaster Category: Tsunami
15:44:58.410 -> $GPGGA,064459.00,3540.1911,N,13944.5823,E,2,07,2.2,14.4,M,39.1,M,,*55
15:44:58.410 -> $QZQSM,56,9AB3F802BF000A1BDA038495163E29D90000000000000000000000006453B64*71
15:44:58.410 -> Country: Thailand
15:44:58.410 -> Disaster Category: Tsunami
15:45:02.277 -> $GPGGA,064503.00,3540.1908,N,13944.5823,E,2,07,2.2,14.4,M,39.1,M,,*53
15:45:02.679 -> $GPGGA,064504.00,3540.1906,N,13944.5823,E,2,07,2.2,14.4,M,39.1,M,,*5A
15:45:02.726 -> $QZQSM,56,C6B3F802BF000A1BDA038495163E29D9000000000000000000000000B3AEAA4*79
15:45:02.726 -> Country: Thailand
15:45:02.726 -> Disaster Category: Tsunami
15:45:06.537 -> $GPGGA,064507.00,3540.1901,N,13944.5828,E,2,07,2.2,14.3,M,39.1,M,,*52
15:45:06.537 -> $QZQSM,56,53ADF6445400050C9EA201D45DEA8BC7543F2A88AD51182A23500010DE93850*09
15:45:06.691 -> $GPGGA,064508.00,3540.1901,N,13944.5835,E,2,07,2.2,14.2,M,39.1,M,,*50
15:45:07.694 -> $GPGGA,064509.00,3540.1899,N,13944.5845,E,2,07,2.2,14.2,M,39.1,M,,*56
15:45:08.697 -> $GPGGA,064510.00,3540.1898,N,13944.5855,E,2,07,2.2,14.5,M,39.1,M,,*59
15:45:09.700 -> $GPGGA,064511.00,3540.1898,N,13944.5861,E,2,07,2.2,14.6,M,39.1,M,,*5C
15:45:10.703 -> $GPGGA,064512.00,3540.1896,N,13944.5873,E,2,07,2.2,15.1,M,39.1,M,,*54
15:45:11.706 -> $GPGGA,064513.00,3540.1888,N,13944.5892,E,2,07,2.2,17.8,M,39.1,M,,*5E
15:45:12.709 -> $GPGGA,064514.00,3540.1856,N,13944.5953,E,2,07,2.2,31.9,M,39.1,M,,*53
15:45:13.712 -> $GPGGA,064515.00,3540.1853,N,13944.5961,E,2,07,2.2,32.3,M,39.1,M,,*5F
15:45:14.715 -> $GPGGA,064516.00,3540.1850,N,13944.5968,E,2,07,2.2,32.6,M,39.1,M,,*53
15:45:15.719 -> $GPGGA,064517.00,3540.1849,N,13944.5972,E,2,07,2.2,33.1,M,39.1,M,,*57
15:45:16.721 -> $GPGGA,064518.00,3540.1846,N,13944.5978,E,2,07,2.2,33.9,M,39.1,M,,*55
15:45:17.724 -> $GPGGA,064519.00,3540.1846,N,13944.5979,E,2,07,2.2,33.6,M,39.1,M,,*5A
15:45:18.727 -> $GPGGA,064520.00,3540.1846,N,13944.5979,E,2,07,2.2,33.7,M,39.1,M,,*51
15:45:19.678 -> $GPGGA,064521.00,3540.1846,N,13944.5981,E,2,07,2.2,33.7,M,39.1,M,,*57
15:45:20.680 -> $GPGGA,064522.00,3540.1846,N,13944.5983,E,2,07,2.2,34.0,M,39.1,M,,*56
15:45:21.684 -> $GPGGA,064523.00,3540.1845,N,13944.5985,E,2,07,2.2,34.3,M,39.1,M,,*51
15:45:22.688 -> $GPGGA,064524.00,3540.1845,N,13944.5985,E,2,07,2.2,34.3,M,39.1,M,,*56
15:45:23.691 -> $GPGGA,064525.00,3540.1845,N,13944.5985,E,2,07,2.2,34.3,M,39.1,M,,*57
15:45:24.695 -> $GPGGA,064526.00,3540.1844,N,13944.5987,E,2,07,2.2,34.7,M,39.1,M,,*53
15:45:25.698 -> $GPGGA,064527.00,3540.1843,N,13944.5989,E,2,07,2.2,35.4,M,39.1,M,,*59
15:45:26.702 -> $GPGGA,064528.00,3540.1842,N,13944.5990,E,2,07,2.2,35.6,M,39.1,M,,*5D
15:45:27.705 -> $GPGGA,064529.00,3540.1842,N,13944.5990,E,2,07,2.2,35.7,M,39.1,M,,*5D
15:45:28.708 -> $GPGGA,064530.00,3540.1842,N,13944.5990,E,2,07,2.2,35.7,M,39.1,M,,*55
15:45:29.711 -> $GPGGA,064531.00,3540.1842,N,13944.5990,E,2,07,2.2,35.7,M,39.1,M,,*54
15:45:30.715 -> $GPGGA,064532.00,3540.1842,N,13944.5990,E,2,07,2.2,35.7,M,39.1,M,,*57
15:45:31.719 -> $GPGGA,064533.00,3540.1842,N,13944.5990,E,2,07,2.2,35.7,M,39.1,M,,*56
15:45:32.675 -> $GPGGA,064534.00,3540.1842,N,13944.5990,E,2,07,2.2,35.7,M,39.1,M,,*51
15:45:33.678 -> $GPGGA,064535.00,3540.1842,N,13944.5990,E,2,07,2.2,35.7,M,39.1,M,,*50
15:45:34.682 -> $GPGGA,064536.00,3540.1842,N,13944.5990,E,2,07,2.2,35.7,M,39.1,M,,*53
15:45:35.685 -> $GPGGA,064537.00,3540.1842,N,13944.5990,E,2,07,2.2,35.7,M,39.1,M,,*52
15:45:36.688 -> $GPGGA,064538.00,3540.1843,N,13944.5990,E,2,07,2.2,35.7,M,39.1,M,,*5C
15:45:37.692 -> $GPGGA,064539.00,3540.1843,N,13944.5990,E,2,07,2.2,35.7,M,39.1,M,,*5D
15:45:38.696 -> $GPGGA,064540.00,3540.1843,N,13944.5989,E,2,07,2.2,35.7,M,39.1,M,,*5B
15:45:39.699 -> $GPGGA,064541.00,3540.1843,N,13944.5989,E,2,07,2.2,35.7,M,39.1,M,,*5A
15:45:40.702 -> $GPGGA,064542.00,3540.1843,N,13944.5989,E,2,07,2.2,35.7,M,39.1,M,,*59
15:45:41.706 -> $GPGGA,064543.00,3540.1843,N,13944.5989,E,2,07,2.2,35.7,M,39.1,M,,*58
15:45:42.709 -> $GPGGA,064544.00,3540.1843,N,13944.5989,E,2,07,2.2,35.7,M,39.1,M,,*5F
15:45:43.713 -> $GPGGA,064545.00,3540.1843,N,13944.5989,E,1,08,1.6,35.7,M,39.1,M,,*55
15:45:44.716 -> $GPGGA,064546.00,3540.1843,N,13944.5989,E,1,08,1.6,35.7,M,39.1,M,,*56
15:45:45.719 -> $GPGGA,064547.00,3540.1843,N,13944.5989,E,1,08,1.6,35.7,M,39.1,M,,*57
15:45:46.721 -> $GPGGA,064548.00,3540.1843,N,13944.5989,E,1,08,1.6,35.7,M,39.1,M,,*58
15:45:47.724 -> $GPGGA,064549.00,3540.1843,N,13944.5989,E,1,08,1.6,35.7,M,39.1,M,,*59
15:45:48.727 -> $GPGGA,064550.00,3540.1843,N,13944.5989,E,1,08,1.6,35.7,M,39.1,M,,*51
15:45:49.676 -> $GPGGA,064551.00,3540.1843,N,13944.5989,E,1,08,1.6,35.7,M,39.1,M,,*50
15:45:50.680 -> $GPGGA,064552.00,3540.1843,N,13944.5989,E,1,08,1.6,35.9,M,39.1,M,,*5D
15:45:51.683 -> $GPGGA,064553.00,3540.1843,N,13944.5989,E,1,08,1.6,36.0,M,39.1,M,,*56
15:45:52.686 -> $GPGGA,064554.00,3540.1843,N,13944.5989,E,1,08,1.6,36.1,M,39.1,M,,*50
15:45:53.690 -> $GPGGA,064555.00,3540.1843,N,13944.5990,E,1,08,1.6,36.1,M,39.1,M,,*59
15:45:54.693 -> $GPGGA,064556.00,3540.1840,N,13944.5995,E,1,08,1.6,36.4,M,39.1,M,,*59
15:45:55.697 -> $GPGGA,064557.00,3540.1837,N,13944.6001,E,1,08,1.6,36.7,M,39.1,M,,*5C
15:45:56.700 -> $GPGGA,064558.00,3540.1834,N,13944.6007,E,1,08,1.6,37.1,M,39.1,M,,*51
15:45:57.704 -> $GPGGA,064559.00,3540.1831,N,13944.6011,E,1,08,1.6,37.4,M,39.1,M,,*57
15:45:58.708 -> $GPGGA,064600.00,3540.1828,N,13944.6015,E,1,08,1.6,37.7,M,39.1,M,,*57
15:45:59.712 -> $GPGGA,064601.00,3540.1825,N,13944.6018,E,1,08,1.6,37.8,M,39.1,M,,*59
15:46:00.715 -> $GPGGA,064602.00,3540.1823,N,13944.6021,E,1,08,1.6,37.9,M,39.1,M,,*57
15:46:01.719 -> $GPGGA,064603.00,3540.1820,N,13944.6026,E,1,08,1.6,38.1,M,39.1,M,,*55
15:46:02.676 -> $GPGGA,064604.00,3540.1817,N,13944.6030,E,1,08,1.6,38.4,M,39.1,M,,*54
15:46:03.679 -> $GPGGA,064605.00,3540.1814,N,13944.6035,E,1,08,1.6,38.4,M,39.1,M,,*53
15:46:04.683 -> $GPGGA,064606.00,3540.1815,N,13944.6034,E,1,08,1.6,38.0,M,39.1,M,,*54
15:46:05.687 -> $GPGGA,064607.00,3540.1815,N,13944.6034,E,1,08,1.6,38.0,M,39.1,M,,*55
15:46:06.690 -> $GPGGA,064608.00,3540.1815,N,13944.6034,E,1,08,1.6,38.0,M,39.1,M,,*5A
15:46:06.690 -> $QZQSM,55,53ADF6445180054474A88FD51F6AA3F254BC2A979800000000000010A780978*78
15:46:07.694 -> $GPGGA,064609.00,3540.1815,N,13944.6034,E,1,08,1.6,38.0,M,39.1,M,,*5B
15:46:08.698 -> $GPGGA,064610.00,3540.1815,N,13944.6034,E,1,08,1.6,38.0,M,39.1,M,,*53
15:46:09.701 -> $GPGGA,064611.00,3540.1815,N,13944.6034,E,1,08,1.6,38.0,M,39.1,M,,*52
15:46:10.705 -> $GPGGA,064612.00,3540.1815,N,13944.6034,E,1,08,1.6,38.0,M,39.1,M,,*51
15:46:10.705 -> $QZQSM,55,9AB3F802BF000A1BDA038495163E29D9000000000000000000000000C6E6F50*73
15:46:10.705 -> Country: Thailand
15:46:10.705 -> Disaster Category: Tsunami
15:46:14.564 -> $GPGGA,064615.00,3540.1815,N,13944.6034,E,1,08,1.6,38.0,M,39.1,M,,*56
15:46:14.564 -> $QZQSM,55,C6B3F802BF000A1BDA038495163E29D900000000000000000000000135E2514*7B
15:46:14.564 -> Country: Thailand
15:46:14.564 -> Disaster Category: Tsunami
15:46:18.431 -> $GPGGA,064619.00,3540.1814,N,13944.6034,E,1,08,1.6,38.0,M,39.1,M,,*5B
15:46:18.679 -> $GPGGA,064620.00,3540.1814,N,13944.6034,E,1,08,1.6,38.0,M,39.1,M,,*51
15:46:18.732 -> $QZQSM,55,53B3F802BF000A1BDA038495163E29D90000000000000000000000015DAD4F8*77
15:46:18.732 -> Country: Thailand
15:46:18.732 -> Disaster Category: Tsunami
15:46:22.545 -> $GPGGA,064623.00,3540.1814,N,13944.6034,E,2,06,2.9,37.1,M,39.1,M,,*5D
15:46:22.545 -> $QZQSM,55,9AB3F802BF000A1BDA038495163E29D9000000000000000000000001838C738*7B
15:46:22.545 -> Country: Thailand
15:46:22.545 -> Disaster Category: Tsunami
15:46:26.406 -> $GPGGA,064627.00,3540.1808,N,13944.5982,E,2,06,2.9,34.6,M,39.1,M,,*57
15:46:26.406 -> $QZQSM,55,C6ADF6445400050C9EA201D45DEA8BC7543F2A88AD51182A23500011F3B61D4*0E
15:46:26.707 -> $GPGGA,064628.00,3540.1807,N,13944.5965,E,2,06,2.9,33.9,M,39.1,M,,*56
15:46:27.710 -> $GPGGA,064629.00,3540.1806,N,13944.5949,E,2,06,2.9,33.1,M,39.1,M,,*50
15:46:28.714 -> $GPGGA,064630.00,3540.1807,N,13944.5935,E,2,06,2.9,32.2,M,39.1,M,,*50
15:46:29.718 -> $GPGGA,064631.00,3540.1809,N,13944.5921,E,2,06,2.9,31.3,M,39.1,M,,*58
15:46:30.722 -> $GPGGA,064632.00,3540.1808,N,13944.5905,E,2,06,2.9,30.6,M,39.1,M,,*58
15:46:30.722 -> $QZQSM,55,53B3F802BF000A1BDA038495163E29D900000000000000000000000230A7874*04
15:46:30.722 -> Country: Thailand
15:46:30.722 -> Disaster Category: Tsunami
15:46:34.536 -> $GPGGA,064635.00,3540.1813,N,13944.5849,E,2,06,2.9,27.7,M,39.1,M,,*5B
15:46:34.536 -> $QZQSM,55,9AB3F802BF000A1BDA038495163E29D90000000000000000000000024C33F80*0D
15:46:34.589 -> Country: Thailand
15:46:34.589 -> Disaster Category: Tsunami
15:46:38.402 -> $GPGGA,064639.00,3540.1825,N,13944.5834,E,2,06,2.9,24.8,M,39.1,M,,*54
15:46:38.703 -> $GPGGA,064640.00,3540.1830,N,13944.5831,E,2,06,2.9,23.6,M,39.1,M,,*52
15:46:38.703 -> $QZQSM,55,C6B3F802BF000A1BDA038495163E29D90000000000000000000000029BCEE40*05
15:46:38.703 -> Country: Thailand
15:46:38.703 -> Disaster Category: Tsunami
15:46:42.564 -> $GPGGA,064643.00,3540.1841,N,13944.5823,E,2,06,2.9,20.0,M,39.1,M,,*51
15:46:42.564 -> $QZQSM,55,53B3F802BF000A1BDA038495163E29D9000000000000000000000002F381FAC*72
15:46:42.564 -> Country: Thailand
15:46:42.564 -> Disaster Category: Tsunami
15:46:46.432 -> $GPGGA,064647.00,3540.1840,N,13944.5817,E,2,06,2.9,18.2,M,39.1,M,,*5A
15:46:46.432 -> $QZQSM,55,9AADF6445400050406A08214106A861350C30A1875431128645000130078584*7A
15:46:46.679 -> $GPGGA,064648.00,3540.1839,N,13944.5816,E,2,06,2.9,18.4,M,39.1,M,,*5C
15:46:47.683 -> $GPGGA,064649.00,3540.1838,N,13944.5813,E,2,06,2.9,18.6,M,39.1,M,,*5B
15:46:48.686 -> $GPGGA,064650.00,3540.1836,N,13944.5812,E,2,06,2.9,19.0,M,39.1,M,,*5B
15:46:49.689 -> $GPGGA,064651.00,3540.1834,N,13944.5811,E,2,06,2.9,18.7,M,39.1,M,,*5D
15:46:50.692 -> $GPGGA,064652.00,3540.1834,N,13944.5811,E,2,06,2.9,18.0,M,39.1,M,,*59
15:46:50.692 -> $QZQSM,55,C6B3F802BF000A1BDA038495163E29D90000000000000000000000037C1121C*0C
15:46:50.692 -> Country: Thailand
15:46:50.692 -> Disaster Category: Tsunami
15:46:54.557 -> $GPGGA,064655.00,3540.1843,N,13944.5805,E,2,06,2.9,14.4,M,39.1,M,,*53
15:46:54.557 -> $QZQSM,55,53B3F802BF000A1BDA038495163E29D9000000000000000000000003B6EB7C4*78
15:46:54.557 -> Country: Thailand
15:46:54.557 -> Disaster Category: Tsunami
15:46:58.418 -> $GPGGA,064659.00,3540.1848,N,13944.5803,E,2,06,2.9,13.5,M,39.1,M,,*54
15:46:58.418 -> $QZQSM,55,9AB3F802BF000A1BDA038495163E29D9000000000000000000000003CA7F030*75
15:46:58.418 -> Country: Thailand
15:46:58.418 -> Disaster Category: Tsunami
15:47:02.285 -> $GPGGA,064703.00,3540.1848,N,13944.5803,E,2,06,2.9,13.5,M,39.1,M,,*5A
15:47:02.686 -> $GPGGA,064704.00,3540.1848,N,13944.5803,E,2,06,2.9,13.5,M,39.1,M,,*5D
15:47:02.686 -> $QZQSM,55,C6B3F802BF000A1BDA038495163E29D9000000000000000000000000111BE90*04
15:47:02.733 -> Country: Thailand
15:47:02.733 -> Disaster Category: Tsunami
15:47:06.546 -> $GPGGA,064707.00,3540.1848,N,13944.5803,E,2,06,2.9,14.6,M,39.1,M,,*5A
15:47:06.546 -> $QZQSM,55,53ADF6444F000283F2507F8A101942082841A508D4A11FA81FE0001058CB9D0*0D
15:47:06.700 -> $GPGGA,064708.00,3540.1848,N,13944.5803,E,2,06,2.9,14.7,M,39.1,M,,*54
15:47:07.704 -> $GPGGA,064709.00,3540.1848,N,13944.5803,E,2,06,2.9,15.5,M,39.1,M,,*56
15:47:08.707 -> $GPGGA,064710.00,3540.1848,N,13944.5804,E,2,06,2.9,15.7,M,39.1,M,,*5B
15:47:09.711 -> $GPGGA,064711.00,3540.1848,N,13944.5804,E,2,06,2.9,15.9,M,39.1,M,,*54
15:47:10.713 -> $GPGGA,064712.00,3540.1848,N,13944.5805,E,2,06,2.9,16.3,M,39.1,M,,*5F
15:47:10.713 -> $QZQSM,55,9AB3F802BF000A1BDA038495163E29D9000000000000000000000000A775CBC*00
15:47:10.713 -> Country: Thailand
15:47:10.713 -> Disaster Category: Tsunami
15:47:14.573 -> $GPGGA,064715.00,3540.1849,N,13944.5807,E,2,06,2.9,17.7,M,39.1,M,,*5E
15:47:14.573 -> $QZQSM,55,C6B3F802BF000A1BDA038495163E29D9000000000000000000000000D23D948*0F
15:47:14.573 -> Country: Thailand
15:47:14.573 -> Disaster Category: Tsunami
15:47:18.387 -> $GPGGA,064719.00,3540.1849,N,13944.5808,E,2,06,2.9,18.5,M,39.1,M,,*50
15:47:18.440 -> $QZQSM,55,53B3F802BF000A1BDA038495163E29D90000000000000000000000013C3E714*7D
15:47:18.440 -> Country: Thailand
15:47:18.440 -> Disaster Category: Tsunami
15:47:22.254 -> $GPGGA,064723.00,3540.1849,N,13944.5808,E,2,06,2.9,19.8,M,39.1,M,,*55
15:47:22.702 -> $GPGGA,064724.00,3540.1849,N,13944.5808,E,2,06,2.9,20.2,M,39.1,M,,*52
15:47:22.702 -> $QZQSM,55,9AB3F802BF000A1BDA038495163E29D900000000000000000000000140AA0E0*76
15:47:22.702 -> Country: Thailand
15:47:22.702 -> Disaster Category: Tsunami
15:47:26.569 -> $GPGGA,064727.00,3540.1848,N,13944.5809,E,2,06,2.9,21.1,M,39.1,M,,*53
15:47:26.569 -> $QZQSM,55,C6ADF6445180054474A88FD51F6AA3F254BC2A9798000000000000118AA50FC*7A
15:47:26.715 -> $GPGGA,064728.00,3540.1845,N,13944.5811,E,2,06,2.9,21.1,M,39.1,M,,*58
15:47:27.719 -> $GPGGA,064729.00,3540.1849,N,13944.5808,E,2,06,2.9,21.4,M,39.1,M,,*58
15:47:28.722 -> $GPGGA,064730.00,3540.1844,N,13944.5810,E,2,06,2.9,21.6,M,39.1,M,,*56
15:47:29.679 -> $GPGGA,064731.00,3540.1840,N,13944.5811,E,2,06,2.9,21.7,M,39.1,M,,*53
15:47:30.683 -> $GPGGA,064732.00,3540.1838,N,13944.5812,E,2,06,2.9,21.5,M,39.1,M,,*5E
15:47:30.683 -> $QZQSM,55,53B3F802BF000A1BDA038495163E29D9000000000000000000000001FF180CC*70
15:47:30.730 -> Country: Thailand
15:47:30.730 -> Disaster Category: Tsunami
15:47:34.543 -> $GPGGA,064735.00,3540.1851,N,13944.5808,E,2,06,2.9,20.8,M,39.1,M,,*51
15:47:34.543 -> $QZQSM,55,9AB3F802BF000A1BDA038495163E29D90000000000000000000000022DA0C6C*05
15:47:34.543 -> Country: Thailand
15:47:34.543 -> Disaster Category: Tsunami
15:47:38.411 -> $GPGGA,064739.00,3540.1852,N,13944.5808,E,2,06,2.9,20.5,M,39.1,M,,*53
15:47:38.712 -> $GPGGA,064740.00,3540.1852,N,13944.5808,E,2,06,2.9,20.5,M,39.1,M,,*5D
15:47:38.712 -> $QZQSM,55,C6B3F802BF000A1BDA038495163E29D900000000000000000000000258E8998*71
15:47:38.712 -> Country: Thailand
15:47:38.712 -> Disaster Category: Tsunami
15:47:42.572 -> $GPGGA,064743.00,3540.1852,N,13944.5808,E,2,06,2.9,20.5,M,39.1,M,,*5E
15:47:42.572 -> $QZQSM,55,53B3F802BF000A1BDA038495163E29D90000000000000000000000029212C40*05
15:47:42.572 -> Country: Thailand
15:47:42.572 -> Disaster Category: Tsunami
15:47:46.436 -> $GPGGA,064747.00,3540.1852,N,13944.5808,E,2,06,2.9,20.5,M,39.1,M,,*5A
15:47:46.436 -> $QZQSM,55,9AADF6445400050C9EA201D45DEA8BC7543F2A88AD51182A23500012EBF48AC*0F
15:47:46.684 -> $GPGGA,064748.00,3540.1852,N,13944.5808,E,2,06,2.9,20.5,M,39.1,M,,*55
15:47:47.687 -> $GPGGA,064749.00,3540.1852,N,13944.5808,E,2,06,2.9,20.5,M,39.1,M,,*54
15:47:48.689 -> $GPGGA,064750.00,3540.1852,N,13944.5808,E,2,06,2.9,20.5,M,39.1,M,,*5C
15:47:49.692 -> $GPGGA,064751.00,3540.1852,N,13944.5808,E,2,06,2.9,20.5,M,39.1,M,,*5D
15:47:50.695 -> $GPGGA,064752.00,3540.1852,N,13944.5808,E,2,06,2.9,20.5,M,39.1,M,,*5E
15:47:50.695 -> $QZQSM,55,C6B3F802BF000A1BDA038495163E29D90000000000000000000000031D821F0*00
15:47:50.695 -> Country: Thailand
15:47:50.695 -> Disaster Category: Tsunami
15:47:54.558 -> $GPGGA,064755.00,3540.1867,N,13944.5802,E,2,06,2.9,19.9,M,39.1,M,,*53
15:47:54.558 -> $QZQSM,55,53B3F802BF000A1BDA038495163E29D900000000000000000000000375CD01C*0C
15:47:54.558 -> Country: Thailand
15:47:54.558 -> Disaster Category: Tsunami
15:47:58.414 -> $GPGGA,064759.00,3540.1909,N,13944.5789,E,2,06,2.9,15.9,M,39.1,M,,*56
15:47:58.695 -> $GPGGA,064800.00,3540.1919,N,13944.5786,E,2,06,2.9,14.7,M,39.1,M,,*54
15:47:58.695 -> $QZQSM,55,9AB3F802BF000A1BDA038495163E29D9000000000000000000000003ABEC3DC*04
15:47:58.695 -> Country: Thailand
15:47:58.695 -> Disaster Category: Tsunami
15:48:02.561 -> $GPGGA,064803.00,3540.1938,N,13944.5782,E,2,06,2.9,12.3,M,39.1,M,,*52
15:48:02.561 -> $QZQSM,55,C6B3F802BF000A1BDA038495163E29D9000000000000000000000003DEA4628*70
15:48:02.561 -> Country: Thailand
15:48:02.561 -> Disaster Category: Tsunami
15:48:06.409 -> $GPGGA,064807.00,3540.1955,N,13944.5783,E,2,06,2.9,7.9,M,39.1,M,,*62
15:48:06.409 -> $QZQSM,55,53ADF6445400050406A08214106A861350C30A18754311286450001011E6EFC*02
15:48:06.687 -> $GPGGA,064808.00,3540.1956,N,13944.5782,E,2,06,2.9,7.2,M,39.1,M,,*64
15:48:07.718 -> $GPGGA,064809.00,3540.1957,N,13944.5782,E,2,06,2.9,7.1,M,39.1,M,,*67
15:48:08.695 -> $GPGGA,064810.00,3540.1957,N,13944.5782,E,2,06,2.9,6.9,M,39.1,M,,*66
